<?xml version='1.0' encoding='cp1251'?>
<pricelists>
  <pricelist>
    <name>Сибнефть74</name>
    <url>price9.xml</url>
    <shops>
      <shop>
        <city>Челябинск</city>
        <address>Елькина 107а/1</address>
        <coord>
          <latitude>55.14495</latitude>
          <longitude>61.4006166667</longitude>
        </coord>
      </shop>
    </shops>
  </pricelist>
  <pricelist>
    <name>Сибнефть74</name>
    <url>price5.xml</url>
    <shops>
      <shop>
        <city>Челябинск</city>
        <address>Профинтерна, 58/1</address>
        <coord>
          <latitude>55.1349166667</latitude>
          <longitude>61.3885166667</longitude>
        </coord>
      </shop>
    </shops>
  </pricelist>
  <pricelist>
    <name>Сибнефть74</name>
    <url>price2.xml</url>
    <shops>
      <shop>
        <city>Челябинск</city>
        <address>Механическая, 105/1</address>
        <coord>
          <latitude>55.1923666667</latitude>
          <longitude>61.4215333333</longitude>
        </coord>
      </shop>
    </shops>
  </pricelist>
  <pricelist>
    <name>Сибнефть74</name>
    <url>price1.xml</url>
    <shops>
      <shop>
        <city>Челябинск</city>
        <address>Харлова, 1/1</address>
        <coord>
          <latitude>55.1475</latitude>
          <longitude>61.4475</longitude>
        </coord>
      </shop>
    </shops>
  </pricelist>
  <pricelist>
    <name>Сибнефть74</name>
    <url>price8.xml</url>
    <shops>
      <shop>
        <city>Челябинск</city>
        <address>Гагарина, 1/1</address>
        <coord>
          <latitude>55.1452666667</latitude>
          <longitude>61.4470833333</longitude>
        </coord>
      </shop>
    </shops>
  </pricelist>
  <pricelist>
    <name>Сибнефть74</name>
    <url>price4.xml</url>
    <shops>
      <shop>
        <city>Челябинск</city>
        <address>Героев Танкограда, 15/1</address>
        <coord>
          <latitude>55.1912666667</latitude>
          <longitude>61.4402166667</longitude>
        </coord>
      </shop>
    </shops>
  </pricelist>
  <pricelist>
    <name>Сибнефть74</name>
    <url>price6.xml</url>
    <shops>
      <shop>
        <city>Челябинск</city>
        <address>Победы проспект, 290/1</address>
        <coord>
          <latitude>55.1889666667</latitude>
          <longitude>61.3552666667</longitude>
        </coord>
      </shop>
    </shops>
  </pricelist>
  <pricelist>
    <name>Сибнефть74</name>
    <url>price7.xml</url>
    <shops>
      <shop>
        <city>Челябинск</city>
        <address>Кузнецова, 1/1</address>
        <coord>
          <latitude>55.1171333333</latitude>
          <longitude>61.3619666667</longitude>
        </coord>
      </shop>
    </shops>
  </pricelist>
  <pricelist>
    <name>Сибнефть74</name>
    <url>price3.xml</url>
    <shops>
      <shop>
        <city>Челябинск</city>
        <address>Северная (Шершни), 40/1</address>
        <coord>
          <latitude>55.1574</latitude>
          <longitude>61.2973666667</longitude>
        </coord>
      </shop>
    </shops>
  </pricelist>
</pricelists>
