<?xml version='1.0' encoding='cp1251'?>
<pricelists>
  <pricelist>
    <name>Башнефть</name>
    <url>price1.xml</url>
    <shops>
      <shop>
        <city>Челябинск</city>
        <address>Троицкий тракт, 12/1</address>
        <coord>
          <latitude>55.12325</latitude>
          <longitude>61.3865666667</longitude>
        </coord>
      </shop>
    </shops>
  </pricelist>
  <pricelist>
    <name>Башнефть</name>
    <url>price4.xml</url>
    <shops>
      <shop>
        <city>Челябинск</city>
        <address>Копейское шоссе, 56/1</address>
        <coord>
          <latitude>55.1399</latitude>
          <longitude>61.4568666667</longitude>
        </coord>
      </shop>
    </shops>
  </pricelist>
  <pricelist>
    <name>Башнефть АЗС №5</name>
    <url>price6.xml</url>
    <shops>
      <shop>
        <city>Челябинск</city>
        <address>Свердловский тракт, 3/1</address>
        <coord>
          <latitude>55.2186</latitude>
          <longitude>61.38095</longitude>
        </coord>
      </shop>
    </shops>
  </pricelist>
  <pricelist>
    <name>Башнефть</name>
    <url>price5.xml</url>
    <shops>
      <shop>
        <city>Челябинск</city>
        <address>Копейское шоссе, 35/1</address>
        <coord>
          <latitude>55.13535</latitude>
          <longitude>61.4633</longitude>
        </coord>
      </shop>
    </shops>
  </pricelist>
  <pricelist>
    <name>Башнефть</name>
    <url>price2.xml</url>
    <shops>
      <shop>
        <city>Челябинск</city>
        <address>Троицкий тракт 7 км, 1/1</address>
        <coord>
          <latitude>55.0713333333</latitude>
          <longitude>61.3890333333</longitude>
        </coord>
      </shop>
    </shops>
  </pricelist>
  <pricelist>
    <name>Башнефть</name>
    <url>price3.xml</url>
    <shops>
      <shop>
        <city>Челябинск</city>
        <address>Копейское шоссе, 32/1</address>
        <coord>
          <latitude>55.1256666667</latitude>
          <longitude>61.4955</longitude>
        </coord>
      </shop>
    </shops>
  </pricelist>
  <pricelist>
    <name>Башнефть</name>
    <url>price7.xml</url>
    <shops>
      <shop>
        <city>Челябинск</city>
        <address>Северная (Шершни), 58/1</address>
        <coord>
          <latitude>55.1575666667</latitude>
          <longitude>61.29885</longitude>
        </coord>
      </shop>
    </shops>
  </pricelist>
</pricelists>
